[
    {
        "name": "と㐂",
        "latitude": 35.70286222074748, 
        "longitude": 139.8253424042158
    },
    {
        "name": "う成る",
        "latitude": 35.698869925928626,
        "longitude": 139.82702045639465
    },
    {
        "name": "鶏嘉",
        "latitude": 35.69610270200134,
        "longitude": 139.8261316048175
    },
    {
        "name": "いこい",
        "latitude": 35.69824941794686,
        "longitude": 139.82755715293678
    },
    {
        "name": "けいちゃん",
        "latitude": 35.70026013856535,
        "longitude": 139.8260714757702
    },
    {
        "name": "したぢ屋",
        "latitude": 35.70023555548101,
        "longitude": 139.8260764774211
    },
    {
        "name": "亀戸ホルモン本店",
        "latitude": 35.69855882349506,
        "longitude": 139.82677318973407
    },
    {
        "name": "ぶた鉄",
        "latitude": 35.696102046457824,
        "longitude": 139.8249281687495
    }
]